,City,Cloudiness,Country,Date,Humidity,Latitude,Longitude,Max Temp,Wind Speed
0,mae hong son,81,MM,1559606773,95,19.3,97.96,71.0,1.41
1,albany,1,US,1559606705,53,42.65,-73.75,57.99,4.7
2,nome,1,US,1559606774,49,30.04,-94.42,91.4,4.7
3,punta arenas,0,CL,1559606774,85,-53.16,-70.91,35.01,3.36
4,birakan,11,RU,1559606774,54,49.02,131.7,69.2,1.81
5,victoria,75,BN,1559606774,94,5.28,115.24,78.8,2.24
6,hithadhoo,100,MV,1559606774,76,-0.6,73.08,83.42,18.52
7,upernavik,100,GL,1559606775,72,72.79,-56.15,36.98,2.51
8,puerto ayora,75,EC,1559606775,74,-0.74,-90.35,78.8,14.99
9,caravelas,1,BR,1559606775,77,-17.73,-39.27,75.68,5.44
10,pevek,100,RU,1559606775,94,69.7,170.27,33.2,5.08
11,butaritari,40,KI,1559606775,78,3.07,172.79,84.68,13.18
12,tuktoyaktuk,75,CA,1559606775,70,69.44,-133.03,42.8,13.87
13,green river,40,US,1559606775,31,41.53,-109.47,64.4,10.29
14,pangnirtung,71,CA,1559606775,42,66.15,-65.72,48.5,4.97
15,avarua,83,CK,1559606776,88,-21.21,-159.78,75.2,8.05
16,stokmarknes,95,NO,1559606776,76,68.56,14.91,50.0,10.49
17,hilo,40,US,1559606776,58,19.71,-155.08,82.4,6.93
18,new norfolk,75,AU,1559606776,70,-42.78,147.06,48.0,9.17
19,mahebourg,40,MU,1559606776,69,-20.41,57.7,73.4,18.34
20,nizhniy baskunchak,100,RU,1559606776,63,48.22,46.83,77.3,10.02
21,kapaa,40,US,1559606691,61,22.08,-159.32,84.2,14.99
22,kodiak,1,US,1559606777,54,39.95,-94.76,81.0,10.29
23,balakhninskiy,90,RU,1559606777,63,58.01,114.28,50.3,4.79
24,lorengau,100,PG,1559606777,79,-2.02,147.27,82.52,7.99
25,cape town,75,ZA,1559606777,93,-33.93,18.42,61.0,6.93
26,rikitea,32,PF,1559606777,79,-23.12,-134.97,74.96,19.46
27,chuy,1,UY,1559606777,68,-33.69,-53.46,60.02,11.5
28,airai,81,TL,1559606777,67,-8.93,125.41,78.38,9.57
29,dongkan,79,CN,1559606778,52,34.0,119.83,80.54,8.5
30,vaini,97,IN,1559606778,87,15.34,74.49,78.38,2.82
31,imbituba,75,BR,1559606608,88,-28.24,-48.67,62.6,5.82
32,kutum,99,SD,1559606778,30,14.2,24.66,86.3,8.21
33,jamestown,11,AU,1559606776,70,-33.21,138.6,49.4,8.81
34,lompoc,90,US,1559606778,82,34.64,-120.46,78.01,9.17
35,severo-kurilsk,100,RU,1559606778,95,50.68,156.12,44.72,10.56
36,sept-iles,90,CA,1559606550,93,50.2,-66.38,46.0,9.17
37,tautira,20,PF,1559606778,66,-17.73,-149.15,84.2,4.7
38,methoni,20,GR,1559606778,87,36.82,21.7,62.01,7.56
39,taoudenni,99,ML,1559606779,8,22.68,-3.98,92.96,10.78
40,san borja,1,BO,1559606779,83,-14.86,-66.75,69.02,0.78
41,ovalle,36,CL,1559606779,51,-30.6,-71.2,61.28,6.96
42,mandalgovi,0,MN,1559606511,51,45.76,106.27,45.8,15.17
43,maniitsoq,0,GL,1559606779,60,65.42,-52.9,41.12,9.75
44,port alfred,35,ZA,1559606779,65,-33.59,26.89,64.99,6.67
45,kamenka,1,RU,1559606779,77,53.19,44.05,48.5,6.69
46,tura,0,IN,1559606780,79,25.52,90.21,75.5,5.39
47,koungheul,62,SN,1559606780,36,13.98,-14.8,86.66,14.09
48,seguela,100,CI,1559606780,96,7.96,-6.67,72.8,4.36
49,nikolskoye,0,RU,1559606780,66,59.7,30.79,53.6,4.47
50,hermanus,55,ZA,1559606780,84,-34.42,19.24,59.0,5.01
51,honiton,20,GB,1559606780,93,50.8,-3.19,55.99,3.36
52,bethel,40,US,1559606781,62,60.79,-161.76,57.2,12.75
53,hobart,75,AU,1559606781,70,-42.88,147.33,48.0,9.17
54,mount gambier,75,AU,1559606781,81,-37.83,140.78,48.2,12.75
55,sola,90,FI,1559606782,76,62.78,29.36,50.0,8.05
56,gbarnga,100,LR,1559606782,98,7.0,-9.47,72.26,3.02
57,jumla,0,NP,1559606782,63,29.28,82.18,46.16,3.85
58,kulhudhuffushi,100,MV,1559606782,75,6.62,73.07,84.32,9.42
59,lebu,43,ET,1559606783,75,8.96,38.73,56.42,2.19
60,katsuura,75,JP,1559606783,88,33.93,134.5,71.6,4.7
61,mataura,86,NZ,1559606783,83,-46.19,168.86,41.0,7.14
62,sinjai,86,ID,1559606574,79,-5.12,120.25,75.32,5.73
63,dikson,17,RU,1559606783,90,73.51,80.55,29.96,13.58
64,ushuaia,20,AR,1559606730,70,-54.81,-68.31,42.8,4.7
65,atuona,2,PF,1559606784,74,-9.8,-139.03,82.7,16.02
66,pisco,90,PE,1559606784,30,-13.71,-76.2,71.6,4.7
67,malanje,0,AO,1559606784,40,-9.54,16.35,61.82,5.21
68,ribeira grande,51,PT,1559606785,81,38.52,-28.7,62.9,20.15
69,carnarvon,0,ZA,1559606785,35,-30.97,22.13,55.7,6.87
70,vardo,1,US,1559606530,30,39.62,-77.74,69.8,9.17
71,sitka,1,US,1559606785,57,37.17,-99.65,84.0,11.01
72,castro,90,CL,1559606786,100,-42.48,-73.76,53.6,14.99
73,laurel,75,US,1559606786,41,45.67,-108.77,80.01,11.41
74,palu,100,ID,1559606786,71,-0.9,119.87,80.54,3.71
75,barrow,44,AR,1559606786,52,-38.31,-60.23,51.38,8.3
76,luganville,90,VU,1559606787,74,-15.51,167.18,80.6,5.82
77,hasaki,75,JP,1559606787,69,35.73,140.83,75.0,4.7
78,khatanga,0,RU,1559606618,76,71.98,102.47,47.78,3.85
79,mar del plata,99,AR,1559606787,62,-46.43,-67.52,51.56,18.39
80,tasiilaq,0,GL,1559606787,69,65.61,-37.64,32.0,2.24
81,ponta do sol,68,BR,1559606787,93,-20.63,-46.0,60.92,1.36
82,elda,0,ES,1559606787,88,38.48,-0.8,68.0,2.59
83,hay river,75,CA,1559606787,66,60.82,-115.79,48.2,5.82
84,lar,82,IR,1559606788,37,27.66,54.32,84.86,2.75
85,inuvik,90,CA,1559606788,61,68.36,-133.71,50.0,5.82
86,puerto madryn,99,AR,1559606551,42,-42.77,-65.04,55.52,9.51
87,kango,91,GA,1559606788,96,0.19,10.1,73.52,2.13
88,zholymbet,10,KZ,1559606633,62,51.74,71.71,54.98,5.01
89,dicabisagan,18,PH,1559606788,69,17.08,122.42,85.58,2.59
90,bowen,100,AU,1559606788,67,-20.01,148.25,66.0,9.17
91,tiksi,19,RU,1559606788,83,71.64,128.87,33.56,13.94
92,cayenne,90,GF,1559606788,100,4.94,-52.33,75.2,4.52
93,leh,97,IN,1559606789,66,34.16,77.58,30.86,4.45
94,bluff,0,AU,1559606789,30,-23.58,149.07,58.4,16.53
95,bredasdorp,84,ZA,1559606789,76,-34.53,20.04,55.4,3.36
96,gornyy,0,RU,1559606789,66,51.76,48.54,57.68,13.4
97,lazaro cardenas,75,MX,1559606789,77,28.39,-105.62,66.2,5.82
98,faanui,13,PF,1559606789,70,-16.48,-151.75,81.8,9.71
99,sinnamary,100,GF,1559606789,82,5.38,-52.96,81.08,10.36
100,vila velha,0,BR,1559606733,74,-3.71,-38.6,82.4,6.93
101,babstovo,1,RU,1559606790,64,48.12,132.48,66.32,2.71
102,darhan,0,MN,1559606790,54,49.49,105.92,45.62,4.88
103,nizwa,0,OM,1559606505,44,22.93,57.53,80.72,2.84
104,broken hill,0,AU,1559606790,80,-31.97,141.45,41.0,14.99
105,nantucket,1,US,1559606790,31,41.28,-70.1,66.2,12.75
106,saint-leu,20,RE,1559606790,73,-21.15,55.28,72.0,20.8
107,cabedelo,20,BR,1559606790,83,-6.97,-34.84,78.8,6.93
108,zhigansk,100,RU,1559606791,50,66.77,123.37,63.62,4.65
109,port-gentil,20,GA,1559606791,94,-0.72,8.78,75.2,5.82
110,alice springs,40,AU,1559606791,66,-23.7,133.88,48.2,9.17
111,saint-pierre,0,FR,1559606791,87,48.95,4.24,57.2,4.7
112,nanortalik,0,GL,1559606791,83,60.14,-45.24,36.8,4.76
113,oktyabrskiy,0,RU,1559606792,66,55.61,37.97,57.99,4.47
114,san patricio,1,PY,1559606792,97,-26.98,-56.83,56.96,4.47
115,inongo,100,CD,1559606792,83,-1.93,18.29,74.42,2.13
116,finnsnes,66,NO,1559606792,61,69.23,17.98,51.01,13.87
117,kavieng,100,PG,1559606792,77,-2.57,150.8,84.14,11.01
118,marsh harbour,70,BS,1559606792,80,26.54,-77.06,81.26,6.17
119,yulara,0,AU,1559606793,70,-25.24,130.99,44.6,10.29
120,qaanaaq,100,GL,1559606793,89,77.48,-69.36,25.64,2.3
121,beidao,99,CN,1559606793,69,34.57,105.89,61.64,3.42
122,oranjestad,20,AW,1559606793,74,12.52,-70.03,84.2,24.16
123,san jose,31,PH,1559606794,57,15.79,120.99,87.92,8.52
124,hovd,0,NO,1559606794,81,63.83,10.7,54.0,3.36
125,east london,46,ZA,1559606794,33,-33.02,27.91,61.28,5.44
126,arraial do cabo,59,BR,1559606794,78,-22.97,-42.02,73.34,11.81
127,hamilton,40,CA,1559606563,44,43.26,-79.87,60.01,12.75
128,vestmannaeyjar,2,IS,1559606795,56,63.44,-20.27,46.16,22.37
129,tilichiki,100,RU,1559606795,78,60.47,166.1,47.42,4.97
130,wapi pathum,100,TH,1559606795,94,15.84,103.38,80.6,5.82
131,carmen,100,PH,1559606795,60,7.2,124.8,85.76,1.5
132,liptovsky hradok,0,SK,1559606795,87,49.04,19.72,59.0,4.7
133,bubaque,53,GW,1559606796,80,11.28,-15.83,78.92,16.02
134,maumere,99,ID,1559606796,75,-8.63,122.22,79.64,5.28
135,kawambwa,0,ZM,1559606796,78,-9.8,29.07,54.08,6.02
136,haines junction,53,CA,1559606796,25,60.75,-137.51,56.06,5.55
137,kolondieba,100,ML,1559606796,81,11.09,-6.89,78.92,7.43
138,matara,58,PE,1559606796,81,-13.74,-72.9,36.62,4.83
139,virginia beach,1,US,1559606514,49,36.85,-75.98,75.2,5.82
140,norman wells,90,CA,1559606768,81,65.28,-126.83,44.6,3.36
141,stettler,1,CA,1559606797,64,52.32,-112.71,63.0,14.0
142,talnakh,0,RU,1559606797,83,69.49,88.39,32.0,2.24
143,port lincoln,100,AU,1559606797,65,-34.72,135.86,56.6,15.93
144,los llanos de aridane,0,ES,1559606797,73,28.66,-17.92,73.99,10.29
145,bam,97,IR,1559606797,29,29.11,58.36,65.78,6.15
146,ilo,2,PE,1559606797,85,-17.65,-71.34,64.52,4.29
147,cherskiy,100,RU,1559606797,60,68.75,161.3,40.76,21.16
148,tual,100,ID,1559606798,82,-5.67,132.75,81.08,22.77
149,busselton,0,AU,1559606798,45,-33.64,115.35,54.0,23.47
150,quelimane,0,MZ,1559606798,99,-17.88,36.89,65.06,4.7
151,broome,100,GB,1559606798,71,52.47,1.45,57.99,6.93
152,cockburn town,0,TC,1559606798,80,21.46,-71.14,81.44,11.7
153,mogadishu,86,SO,1559606617,80,2.04,45.34,77.66,10.71
154,tecolutla,84,MX,1559606798,90,17.31,-98.74,66.68,7.78
155,villa carlos paz,0,AR,1559606798,93,-31.42,-64.5,57.99,11.41
156,lyuban,0,BY,1559606799,93,52.8,28.0,55.52,6.35
157,comodoro rivadavia,0,AR,1559606799,62,-45.87,-67.48,51.8,9.17
158,bilibino,93,RU,1559606799,89,68.06,166.44,42.74,2.17
159,guarda,45,PT,1559606640,78,40.54,-7.27,59.0,1.99
160,termoli,0,IT,1559606799,67,42.0,14.99,59.3,6.44
161,manzhouli,69,CN,1559606799,46,49.6,117.43,62.9,20.54
162,arawa,100,NG,1559606799,93,7.05,3.9,76.04,2.66
163,alcacer do sal,20,PT,1559606799,77,38.37,-8.51,66.2,5.82
164,kargasok,1,RU,1559606800,89,59.06,80.87,49.22,3.67
165,alihe,65,CN,1559606800,58,50.57,123.73,66.32,2.84
166,beveren,0,BE,1559606800,77,51.21,4.26,60.8,1.12
167,astros,16,GR,1559606800,65,37.4,22.72,62.01,3.0
168,vila franca do campo,40,PT,1559606800,88,37.72,-25.43,64.4,9.17
169,chokurdakh,0,RU,1559606800,50,70.62,147.9,38.96,11.45
170,noyabrsk,1,RU,1559606590,53,63.2,75.45,53.0,6.96
171,port elizabeth,1,US,1559606800,34,39.31,-74.98,69.8,3.36
172,husavik,97,CA,1559606801,46,50.56,-96.99,75.0,7.0
173,russell,0,AR,1559606801,66,-33.01,-68.8,53.6,3.36
174,shingu,75,JP,1559606801,78,33.72,135.99,73.4,4.7
175,rafai,100,CF,1559606801,90,4.95,23.92,70.1,2.19
176,samarai,100,PG,1559606801,94,-10.62,150.67,76.76,5.75
177,yellowknife,90,CA,1559606801,100,62.45,-114.38,41.0,6.93
178,fortuna,0,ES,1559606802,88,38.18,-1.13,68.0,3.94
179,llanes,69,ES,1559606802,97,43.42,-4.75,62.01,2.26
180,kaitangata,38,NZ,1559606802,60,-46.28,169.85,46.0,8.01
181,linkuva,0,LT,1559606802,87,56.09,23.97,55.4,5.82
182,kahului,40,US,1559606802,58,20.89,-156.47,89.6,23.04
183,rio rancho,75,US,1559606802,29,35.27,-106.63,82.0,3.36
184,huarmey,8,PE,1559606803,90,-10.07,-78.15,63.26,15.35
185,osa,66,RU,1559606803,88,57.28,55.46,47.42,16.62
186,hun,38,BE,1559606803,82,50.34,4.87,59.0,1.12
187,koslan,0,RU,1559606803,81,63.46,48.9,37.7,5.84
188,thompson,75,CA,1559606803,41,55.74,-97.86,59.0,5.82
189,tela,20,HN,1559606803,70,15.78,-87.45,89.6,13.87
190,randazzo,0,IT,1559606804,87,37.88,14.95,66.2,5.82
191,narsaq,0,GL,1559606804,46,60.91,-46.05,50.0,8.05
192,vernon,1,CA,1559606529,23,50.27,-119.27,75.2,8.05
193,mapiripan,100,CO,1559606804,91,2.89,-72.13,74.96,2.66
194,mao,75,DO,1559606804,94,19.55,-71.08,82.4,9.17
195,quatre cocos,40,MU,1559606804,69,-20.21,57.76,73.4,18.34
196,inverell,100,AU,1559606804,100,-29.78,151.11,43.0,4.0
197,buraydah,0,SA,1559606805,24,26.33,43.97,89.6,11.41
198,santa cruz del sur,49,CU,1559606805,77,20.71,-78.0,80.54,0.81
199,francistown,0,BW,1559606805,70,-21.17,27.5,52.82,6.89
200,kudahuvadhoo,98,MV,1559606805,76,2.67,72.89,84.86,25.34
201,hirara,75,JP,1559606805,88,24.8,125.28,82.4,14.99
202,saldanha,51,PT,1559606805,82,41.42,-6.55,57.5,4.14
203,dalaba,100,GN,1559606805,93,10.69,-12.25,74.6,1.41
204,marawi,100,PH,1559606806,83,8.0,124.29,81.0,2.53
205,tottori,75,JP,1559606806,100,35.5,134.23,75.2,8.05
206,neunkirchen,0,AT,1559606806,77,47.72,16.08,64.0,6.93
207,pacifica,20,US,1559606581,60,37.61,-122.49,75.99,10.29
208,san isidro,21,PH,1559606740,67,16.74,121.63,83.06,3.67
209,egvekinot,89,RU,1559606807,72,66.32,-179.17,44.54,6.13
210,kochki,6,RU,1559606808,91,54.33,80.49,51.02,9.66
211,agirish,94,RU,1559606808,61,61.92,63.02,54.08,7.18
212,sibu,75,MY,1559606808,100,2.29,111.83,75.2,4.7
213,hami,29,CN,1559606808,18,42.84,93.51,72.62,16.44
214,georgetown,40,GY,1559606779,83,6.8,-58.16,80.6,9.17
215,morgan city,40,US,1559606653,62,29.7,-91.21,87.01,8.05
216,popova,75,RS,1559606809,93,43.33,21.27,57.2,3.36
217,san cristobal,20,EC,1559606809,45,-0.39,-78.55,68.0,6.93
218,jiaozuo,51,CN,1559606809,34,35.21,113.25,80.36,2.28
219,isangel,75,VU,1559606809,65,-19.55,169.27,78.8,5.82
220,ngunguru,1,NZ,1559606809,68,-35.62,174.5,60.01,7.0
221,souillac,0,FR,1559606809,77,45.6,-0.6,66.0,5.82
222,luau,41,CD,1559606809,48,-10.7,22.23,55.52,3.51
223,carballo,20,ES,1559606810,82,43.21,-8.69,62.01,5.82
224,faya,0,SA,1559606810,32,18.39,42.45,69.8,4.7
225,lascahobas,40,HT,1559606810,70,18.83,-71.94,86.0,9.17
226,staraya russa,1,RU,1559606810,81,57.99,31.36,50.48,6.11
227,yara,65,CU,1559606810,70,20.27,-76.95,82.88,3.42
228,grand gaube,40,MU,1559606810,69,-20.01,57.66,73.4,18.34
229,otane,61,NZ,1559606810,74,-39.89,176.62,54.0,11.01
230,chapais,90,CA,1559606811,87,49.78,-74.86,44.6,9.17
231,bad wurzach,75,DE,1559606811,82,47.91,9.89,64.0,4.7
232,tigre,0,AR,1559606811,87,-34.42,-58.58,59.0,3.49
233,anadyr,75,RU,1559606811,70,64.73,177.51,48.2,8.95
234,santa helena de goias,1,BR,1559606811,91,-17.81,-50.6,66.14,5.84
235,saint george,75,GR,1559606591,87,39.45,22.34,60.8,3.36
236,namatanai,86,PG,1559606811,82,-3.66,152.44,81.44,6.31
237,vao,36,EE,1559606812,60,59.1,26.19,61.46,11.72
238,saint-philippe,75,CA,1559606812,81,45.36,-73.48,52.0,10.29
239,puerto escondido,90,MX,1559606812,69,15.86,-97.07,80.6,5.37
240,celestun,100,MX,1559606812,82,20.87,-90.4,84.32,13.87
241,vanimo,100,PG,1559606812,71,-2.67,141.3,82.88,3.76
242,cidreira,0,BR,1559606812,72,-30.17,-50.22,60.02,4.45
243,itupiranga,0,BR,1559606812,78,-5.13,-49.33,82.4,4.7
244,codrington,0,AU,1559606812,47,-28.95,153.24,55.4,10.29
245,general roca,0,AR,1559606654,93,-39.03,-67.58,48.2,2.24
246,zhezkazgan,0,KZ,1559606813,72,47.8,67.71,64.7,2.24
247,mwene-ditu,5,CD,1559606813,44,-7.01,23.45,63.44,4.36
248,shenjiamen,30,CN,1559606813,88,29.96,122.3,72.44,4.07
249,sisimiut,0,GL,1559606813,74,66.94,-53.67,38.06,5.77
250,lima,90,PE,1559606715,82,-12.06,-77.04,64.4,3.36
251,manokwari,100,ID,1559606813,68,-0.87,134.08,78.38,4.25
252,banjar,100,ID,1559606813,96,-7.37,108.54,72.08,2.62
253,vila,0,IT,1559606814,68,45.18,8.4,71.01,2.24
254,burnie,46,AU,1559606814,62,-41.05,145.91,54.0,1.99
255,prince rupert,90,CA,1559606814,87,54.32,-130.32,51.8,5.82
256,muli,0,IN,1559606814,66,22.62,71.45,83.96,15.03
257,bagdarin,100,RU,1559606814,96,54.44,113.59,44.0,2.55
258,mikhaylovka,14,RU,1559606814,68,52.96,103.29,47.06,4.72
259,port hedland,0,AU,1559606815,29,-20.31,118.58,60.8,10.29
260,bima,100,ID,1559606815,87,-8.45,118.73,74.96,4.27
261,beian,40,NO,1559606815,87,63.66,9.57,53.01,4.7
262,flinders,75,AU,1559606815,71,-34.58,150.85,53.01,25.28
263,barentu,55,ER,1559606815,29,15.11,37.59,89.36,0.6
264,rantepao,100,ID,1559606815,96,-2.97,119.9,61.64,3.09
265,barra,10,BR,1559606816,50,-11.09,-43.14,76.58,1.12
266,cuamba,0,MZ,1559606816,95,-14.8,36.54,58.94,5.23
267,paranavai,0,BR,1559606816,72,-23.07,-52.47,68.0,6.42
268,naze,40,NG,1559606816,94,5.43,7.07,78.8,4.63
269,kearney,1,US,1559606816,51,40.7,-99.08,84.99,10.29
270,altay,0,CN,1559606816,54,47.83,88.13,51.38,2.66
271,lubao,75,PH,1559606816,78,14.94,120.6,91.0,4.7
272,witu,40,KE,1559606817,78,-2.39,40.44,80.6,11.41
273,mpika,0,ZM,1559606817,70,-11.84,31.4,52.28,7.76
274,nayoro,71,JP,1559606817,83,44.36,142.46,58.22,5.44
275,leningradskiy,100,RU,1559606817,91,69.38,178.42,38.06,6.13
276,nelson bay,75,AU,1559606817,93,-32.72,152.14,48.2,28.86
277,constitucion,90,MX,1559606817,31,23.99,-104.67,77.0,8.05
278,nazarovo,98,RU,1559606817,64,56.01,90.42,50.84,10.04
279,saskylakh,56,RU,1559606818,75,71.97,114.09,40.22,12.08
280,saint-augustin,0,FR,1559606818,88,44.83,-0.61,66.0,3.36
281,clyde river,75,CA,1559606818,86,70.47,-68.59,37.4,3.36
282,necochea,29,AR,1559606735,97,-38.55,-58.74,48.0,1.99
283,bansi,0,IN,1559606818,43,27.18,82.93,85.94,11.27
284,verkhnyaya toyma,27,RU,1559606818,72,62.24,45.0,38.78,4.14
285,dauphin,1,CA,1559606818,49,51.15,-100.04,73.4,18.34
286,swan river,100,CA,1559606655,65,52.11,-101.27,66.32,10.2
287,mujiayingzi,61,CN,1559606819,66,42.12,118.78,61.46,7.05
288,mana,94,RS,1559606819,100,43.52,20.24,57.2,2.24
289,baykit,67,RU,1559606819,60,61.68,96.39,54.44,6.98
290,gat,40,SN,1559606819,88,14.69,-16.54,71.6,14.99
291,derzhavinsk,91,KZ,1559606819,47,51.1,66.31,64.52,10.65
292,nishihara,75,JP,1559606819,73,35.74,139.53,80.01,2.24
293,sandnessjoen,94,NO,1559606819,100,66.02,12.63,50.0,4.7
294,guerrero negro,2,MX,1559606820,77,27.97,-114.04,65.42,12.82
295,mildura,0,AU,1559606820,81,-34.18,142.16,45.0,11.41
296,rio grande,0,BR,1559606820,92,-32.03,-52.1,53.54,3.62
297,makat,61,KZ,1559606820,29,47.65,53.35,79.64,8.08
298,poronaysk,38,RU,1559606820,62,49.22,143.1,56.96,5.26
299,sidney,75,US,1559606820,60,47.72,-104.16,86.0,23.04
300,luwuk,100,ID,1559606821,99,-0.95,122.79,66.14,2.77
301,raudeberg,97,NO,1559606821,87,61.99,5.14,55.0,28.86
302,kaltasy,6,RU,1559606821,89,55.97,54.79,47.24,14.97
303,senanga,0,ZM,1559606821,41,-16.1,23.3,53.36,5.14
304,itarema,100,BR,1559606821,92,-2.92,-39.92,76.76,5.44
305,taiyuan,0,CN,1559606821,31,37.86,112.56,75.2,2.24
306,zasosna,10,RU,1559606822,91,50.63,38.4,60.38,9.33
307,ahipara,100,NZ,1559606822,100,-35.17,173.16,59.0,12.71
308,trapani,0,IT,1559606822,63,38.02,12.54,66.99,1.12
309,coquimbo,20,CL,1559606599,93,-29.95,-71.34,68.0,4.7
310,langsa,100,ID,1559606822,86,4.47,97.97,71.9,2.66
311,biskamzha,32,RU,1559606822,71,53.45,89.53,45.8,2.37
312,vanavara,9,RU,1559606822,68,60.35,102.28,55.52,2.51
313,dunmore east,93,IE,1559606822,93,52.15,-6.99,53.01,4.36
314,lafia,14,NG,1559606823,65,8.5,8.51,80.18,4.41
315,dunedin,6,NZ,1559606714,58,-45.87,170.5,46.0,21.0
316,pontianak,100,ID,1559606823,86,-0.02,109.34,79.64,10.63
317,ondjiva,0,AO,1559606823,25,-17.07,15.73,58.4,6.38
318,thinadhoo,100,MV,1559606823,78,0.53,72.93,83.96,24.09
319,bambous virieux,40,MU,1559606823,69,-20.34,57.76,73.4,18.34
320,bumba,100,CD,1559606823,95,2.18,22.47,71.72,1.43
321,berlevag,0,NO,1559606823,77,70.86,29.09,39.86,10.2
322,laguna,5,MX,1559606824,40,27.52,-110.01,86.0,10.29
323,great yarmouth,100,GB,1559606824,71,52.61,1.73,57.99,6.93
324,kholm,0,RU,1559606824,83,57.15,31.18,49.94,4.54
325,shubarkuduk,98,KZ,1559606824,59,49.15,56.49,71.18,4.03
326,roma,0,IT,1559606606,88,41.89,12.48,64.0,2.24
327,shumskiy,45,RU,1559606824,64,54.83,99.13,51.38,5.23
328,namibe,0,AO,1559606825,68,-15.19,12.15,71.9,6.91
329,le port,84,FR,1559606825,65,42.87,1.37,64.99,1.99
330,balaipungut,95,ID,1559606825,94,1.11,101.31,75.68,0.87
331,provideniya,20,RU,1559606825,75,64.42,-173.23,42.8,11.18
332,port hardy,75,CA,1559606826,71,50.7,-127.42,55.4,10.29
333,dingle,89,PH,1559606826,62,11.0,122.67,86.48,8.66
334,ivnya,0,RU,1559606826,82,51.06,36.14,62.6,4.47
335,san rafael,85,AR,1559606657,49,-34.61,-68.33,51.92,13.44
336,longyearbyen,75,NO,1559606827,69,78.22,15.63,35.6,6.93
337,linhares,0,BR,1559606827,79,-19.38,-40.06,70.1,2.46
338,baker city,1,US,1559606827,31,44.77,-117.83,78.8,9.17
339,pacific grove,1,US,1559606602,53,36.62,-121.92,82.99,17.22
340,belmonte,45,PT,1559606827,78,40.36,-7.35,61.0,1.99
341,araouane,0,ML,1559606828,7,18.9,-3.53,90.08,10.13
342,lasa,0,CY,1559606828,63,34.92,32.53,75.2,3.36
343,bereda,20,ES,1559606828,82,43.27,-7.54,60.01,5.82
344,westport,65,IE,1559606828,86,53.8,-9.52,52.0,7.72
345,sehwan,1,PK,1559606828,66,26.43,67.86,84.2,6.93
346,ilulissat,57,GL,1559606828,80,69.22,-51.1,41.0,3.36
347,fria,98,GN,1559606828,91,10.36,-13.58,75.5,2.19
348,tsiroanomandidy,30,MG,1559606829,90,-18.77,46.05,62.36,1.86
349,coihaique,90,CL,1559606829,93,-45.58,-72.07,42.8,6.93
350,melilla,75,EC,1559606829,74,-0.8,-80.23,78.8,8.05
351,thunder bay,75,CA,1559606829,41,48.41,-89.26,57.2,9.17
352,poykovskiy,0,RU,1559606829,81,61.23,73.33,50.0,2.24
353,sindor,20,RU,1559606829,76,62.87,51.9,40.58,8.08
354,artyom,20,RU,1559606829,88,43.36,132.19,62.6,7.72
355,high level,75,CA,1559606830,51,58.52,-117.13,59.0,16.11
356,marystown,94,CA,1559606830,97,47.17,-55.16,49.22,8.75
357,kuloy,0,RU,1559606830,65,61.03,42.49,40.76,3.02
358,ziway,60,ET,1559606830,75,7.93,38.72,61.1,2.84
359,te anau,24,NZ,1559606830,71,-45.41,167.72,37.52,1.9
360,saint-joseph,0,FR,1559606830,82,43.56,6.97,68.0,3.36
361,deputatskiy,0,RU,1559606830,62,69.3,139.9,41.84,16.26
362,touros,20,BR,1559606831,83,-5.2,-35.46,78.8,8.05
363,corn island,40,NI,1559606831,78,12.17,-83.04,83.78,14.29
364,el fuerte,0,MX,1559606831,48,26.42,-108.62,84.14,11.14
365,bandarbeyla,100,SO,1559606831,71,9.49,50.81,81.44,16.06
366,saint-michel-des-saints,98,CA,1559606831,84,46.68,-73.92,42.92,12.97
367,bougouni,99,ML,1559606543,80,11.42,-7.49,79.1,8.5
368,porto empedocle,0,IT,1559606705,86,37.29,13.53,64.0,4.83
369,san quintin,30,PH,1559606831,61,17.54,120.52,87.56,3.51
370,carndonagh,75,IE,1559606831,87,55.25,-7.27,50.0,5.82
371,mus,0,FR,1559606832,87,43.74,4.2,66.2,4.7
372,baghdad,0,IQ,1559606818,17,33.3,44.38,94.58,13.78
373,mpophomeni,26,ZA,1559606832,83,-29.57,30.18,60.01,4.07
374,sioux lookout,90,CA,1559606832,44,50.1,-91.92,57.2,6.93
375,roanoke rapids,40,US,1559606832,68,36.46,-77.65,77.0,4.88
376,ballina,16,IE,1559606832,90,54.11,-9.15,52.0,1.01
377,port macquarie,1,AU,1559606832,50,-31.43,152.91,61.0,19.46
378,ostrovnoy,6,RU,1559606832,76,68.05,39.51,36.62,5.3
379,poyarkovo,48,RU,1559606833,57,49.62,128.65,67.22,4.76
380,bukachacha,100,RU,1559606833,80,52.99,116.91,57.32,5.41
381,ancud,90,CL,1559606833,100,-41.87,-73.83,53.6,14.99
382,murdochville,91,CA,1559606833,96,48.96,-65.49,49.76,1.16
383,portage,1,US,1559606765,32,42.2,-85.58,68.0,8.05
384,lata,0,IN,1559606833,58,30.78,78.62,34.1,10.25
385,general cepeda,90,MX,1559606833,68,25.38,-101.48,70.0,17.22
386,tata,0,HU,1559606834,77,47.65,18.32,69.01,2.24
387,nanlong,0,CN,1559606834,50,31.35,106.05,78.02,4.94
388,nokha,1,IN,1559606834,22,27.56,73.47,96.74,15.3
389,plattsburgh,90,US,1559606814,70,44.69,-73.46,53.01,8.93
390,pringsewu,100,ID,1559606600,85,-5.36,104.98,73.7,2.68
391,santa cruz,1,US,1559606836,67,36.97,-122.03,84.0,9.17
392,kitimat,75,CA,1559606836,67,54.02,-128.69,57.2,18.34
393,tazovskiy,59,RU,1559606836,75,67.47,78.7,40.94,8.23
394,idil,0,TR,1559606837,31,37.34,41.89,77.0,9.17
395,ismailia,83,EG,1559606768,55,30.6,32.27,78.38,10.49
396,bodden town,0,KY,1559606587,62,19.28,-81.25,86.0,11.41
397,straumen,0,NO,1559606837,81,63.87,11.3,54.0,3.36
398,ketchikan,90,US,1559606837,81,55.34,-131.65,53.6,9.17
399,goma,100,CD,1559606837,92,-1.67,29.23,56.96,1.57
400,portland,1,US,1559606612,38,45.52,-122.67,75.0,4.7
401,yar-sale,99,RU,1559606837,74,66.83,70.83,42.56,12.28
402,mahon,75,IE,1559606837,93,51.89,-8.4,53.01,6.93
403,wanning,40,AT,1559606837,72,48.64,13.53,64.0,2.24
404,novocheremshansk,0,RU,1559606838,82,54.35,50.17,48.5,8.23
405,bonfim,20,BR,1559606838,91,-20.33,-44.24,61.46,3.47
406,clovis,1,US,1559606838,31,36.83,-119.7,93.0,8.05
407,kawalu,100,ID,1559606838,91,-7.38,108.21,70.64,3.47
408,menongue,0,AO,1559606838,40,-14.66,17.68,50.3,4.05
409,awbari,89,LY,1559606838,41,26.59,12.77,82.88,10.45
410,grindavik,20,IS,1559606838,75,63.84,-22.43,42.8,21.92
411,cortez,75,US,1559606839,19,37.35,-108.58,75.99,10.29
412,sao joao da barra,75,BR,1559606839,88,-21.64,-41.05,69.8,10.29
413,rio novo,26,BR,1559606839,99,-21.48,-43.13,66.99,5.01
414,qaqortoq,0,GL,1559606839,46,60.72,-46.03,50.0,8.05
415,finschhafen,78,PG,1559606839,69,-6.6,147.85,76.04,4.56
416,dalbandin,19,PK,1559606839,18,28.9,64.41,81.26,5.35
417,saint-louis,0,CH,1559606840,82,47.59,7.56,66.0,2.24
418,asmar,41,AF,1559606840,38,35.03,71.36,56.78,8.63
419,dasoguz,1,TM,1559606840,68,41.84,59.97,71.6,2.24
420,wattegama,70,LK,1559606840,87,7.35,80.68,74.6,5.57
421,tarakan,100,ID,1559606840,81,3.3,117.63,80.36,4.52
422,voyvozh,100,RU,1559606840,71,62.89,54.96,42.02,10.98
423,winnemucca,20,US,1559606840,24,40.97,-117.74,82.4,10.29
424,middelburg,0,ZA,1559606840,26,-25.77,29.46,49.22,1.16
425,cervo,40,BR,1559606841,94,-22.19,-46.24,57.14,3.42
426,tharad,0,IN,1559606841,64,24.39,71.63,86.48,14.14
427,felanitx,0,ES,1559606784,77,39.47,3.15,66.0,3.36
428,olinda,75,EC,1559606841,74,-2.03,-79.75,82.4,4.7
429,udachnyy,75,RU,1559606841,76,66.42,112.4,51.8,6.71
430,erzin,20,TR,1559606841,100,36.95,36.2,77.0,2.24
431,torbay,90,CA,1559606841,100,47.66,-52.73,57.2,16.11
432,opuwo,0,NA,1559606842,22,-18.06,13.84,61.28,5.35
433,san,70,ML,1559606842,28,13.3,-4.9,98.18,11.36
434,bathsheba,40,BB,1559606842,83,13.22,-59.52,82.4,16.11
435,ploemeur,0,FR,1559606842,87,47.73,-3.43,57.0,2.24
436,motiong,100,PH,1559606843,82,11.78,125.0,81.62,3.87
437,zella-mehlis,0,DE,1559606843,87,50.66,10.67,62.01,5.82
438,davila,75,PH,1559606843,83,18.47,120.58,82.4,2.24
439,erdaojiang,100,CN,1559606843,94,41.78,126.03,57.5,4.18
440,pereira barreto,14,BR,1559606843,85,-20.64,-51.11,67.94,8.46
441,lufilufi,20,WS,1559606844,13,-13.87,-171.6,134.6,9.17
442,pauini,99,BR,1559606844,97,-7.71,-67.0,74.42,2.55
443,diego de almagro,0,CL,1559606844,45,-26.39,-70.05,60.02,1.28
444,tonekabon,0,IR,1559606844,83,36.82,50.88,69.8,2.93
445,rovaniemi,90,FI,1559606844,100,66.5,25.72,46.4,10.29
446,beyneu,11,KZ,1559606845,20,45.32,55.19,82.52,3.56
447,corvallis,1,US,1559606845,33,44.56,-123.26,78.01,11.41
448,gweru,0,ZW,1559606845,95,-19.46,29.82,47.96,7.16
449,waipawa,61,NZ,1559606846,74,-39.94,176.59,54.0,11.01
450,noumea,0,NC,1559606786,64,-22.28,166.46,71.6,3.71
451,nowy tomysl,0,PL,1559606846,82,52.32,16.13,70.0,2.24
452,ghanzi,0,BW,1559606846,27,-21.7,21.65,59.12,5.5
453,port blair,98,IN,1559606846,77,11.67,92.75,85.22,9.71
454,beloha,100,MG,1559606846,87,-25.17,45.06,65.06,8.48
455,clarence town,75,AU,1559606846,93,-32.59,151.78,48.2,28.86
456,brae,99,GB,1559606847,87,60.4,-1.35,48.2,23.04
457,champerico,75,MX,1559606847,74,16.38,-93.6,82.4,4.7
458,taunggyi,24,MM,1559606847,82,20.78,97.03,70.46,4.65
459,gigmoto,79,PH,1559606847,76,13.78,124.39,85.22,8.23
460,newport,96,GB,1559606746,87,51.59,-3.0,55.4,5.82
461,mackay,40,CA,1559606847,58,53.65,-115.58,57.2,11.41
462,galle,1,US,1559606848,59,29.74,-97.91,90.0,9.17
463,santiago del estero,0,AR,1559606848,70,-27.8,-64.26,59.12,6.78
464,lakes entrance,82,AU,1559606848,86,-37.88,147.99,48.99,1.01
465,vostok,9,RU,1559606848,58,46.45,135.83,64.16,3.06
466,viedma,99,AR,1559606848,37,-40.81,-62.99,56.42,11.79
467,parksville,1,US,1559606848,29,33.79,-82.22,89.6,3.36
468,barkhan,12,PK,1559606848,16,29.9,69.52,77.66,6.51
469,urusha,99,RU,1559606849,42,54.05,122.9,65.42,5.03
470,tandalti,36,SD,1559606849,37,13.01,31.87,93.68,14.85
471,charleston,1,US,1559606745,48,38.35,-81.63,71.01,4.29
472,sistranda,40,NO,1559606849,87,63.73,8.83,53.01,4.7
473,henties bay,0,NA,1559606849,72,-22.12,14.28,60.2,7.43
474,aginskoye,100,RU,1559606849,65,51.11,114.54,57.99,15.01
475,ucluelet,5,CA,1559606849,54,48.94,-125.55,66.99,16.11
476,hondo,1,US,1559606749,52,29.35,-99.14,90.0,6.93
477,ixtapa,90,MX,1559606850,69,20.71,-105.21,77.0,10.29
478,mutis,45,CO,1559606850,77,6.23,-77.4,82.34,6.76
479,manacapuru,20,BR,1559606850,78,-3.3,-60.62,80.6,5.82
480,nenjiang,70,CN,1559606850,49,49.17,125.23,68.66,4.0
481,athabasca,100,CA,1559606850,37,54.72,-113.29,62.72,10.98
482,sambava,3,MG,1559606850,88,-14.27,50.17,65.78,3.69
483,azanka,100,RU,1559606850,91,58.04,64.79,56.24,7.81
484,andros town,40,BS,1559606851,78,24.73,-77.79,82.4,5.82
485,mehamn,0,NO,1559606851,73,71.03,27.85,38.78,5.68
486,sao felix do xingu,1,BR,1559606564,78,-6.64,-51.99,74.6,3.36
487,presidencia roque saenz pena,0,AR,1559606851,84,-26.79,-60.44,56.78,3.98
488,reconquista,0,AR,1559606851,75,-29.14,-59.64,58.76,5.57
489,tessalit,0,ML,1559606851,13,20.2,1.01,90.62,11.36
490,buala,49,SB,1559606851,79,-8.15,159.59,83.96,12.03
491,vapnyarka,100,UA,1559606852,90,48.53,28.74,63.0,5.03
492,saint-denis,0,FR,1559606852,77,48.94,2.36,63.0,4.7
493,yarada,40,IN,1559606852,88,17.65,83.27,75.2,4.7
494,salalah,75,OM,1559606852,84,17.01,54.1,86.0,10.29
495,alofi,24,NU,1559606852,78,-19.06,-169.92,77.48,11.03
496,mfou,100,CM,1559606852,94,3.72,11.64,73.4,2.24
497,las palmas,75,PE,1559606853,290,-6.53,-76.35,62.6,4.7
498,ramsar,41,IR,1559606853,57,36.92,50.64,71.54,2.93
499,schoningen,90,DE,1559606853,93,51.63,9.66,62.01,2.24
500,saint anthony,90,US,1559606853,59,43.97,-111.68,66.2,8.05
501,tezu,96,IN,1559606853,63,27.93,96.16,75.86,2.28
502,huicungo,100,PE,1559606853,51,-7.28,-76.8,73.16,3.89
503,esperance,40,TT,1559606854,88,10.24,-61.45,82.0,5.82
504,krasnokamensk,35,RU,1559606854,49,50.1,118.04,64.34,13.71
505,fredericton,1,CA,1559606854,71,45.97,-66.65,57.2,16.11
506,yuncheng,46,CN,1559606854,35,35.03,111.0,78.92,4.5
507,hambantota,98,LK,1559606854,80,6.12,81.12,83.24,18.01
508,ratlam,8,IN,1559606854,60,23.33,75.04,85.04,17.78
509,datong,84,CN,1559606855,36,40.09,113.3,67.4,11.74
510,urengoy,2,RU,1559606855,46,65.96,78.37,52.82,9.31
511,aklavik,75,CA,1559606855,70,68.22,-135.01,50.0,8.05
512,fort payne,1,US,1559606855,44,34.44,-85.72,87.8,5.82
513,kuryk,39,KZ,1559606855,31,43.18,51.68,79.28,5.66
514,ola,54,RU,1559606855,83,59.58,151.3,43.82,6.6
515,greensburg,1,US,1559606579,48,30.83,-90.67,91.4,6.93
516,dolni kounice,0,CZ,1559606855,82,49.07,16.46,64.0,2.24
517,ilorin,20,NG,1559606856,76,8.5,4.55,78.2,7.4
518,minab,96,IR,1559606856,21,27.15,57.07,91.4,2.24
519,carlsbad,0,CZ,1559606856,72,50.23,12.87,64.4,2.24
520,ahuimanu,75,US,1559606856,51,21.44,-157.84,87.01,19.46
521,qasigiannguit,47,GL,1559606856,80,68.82,-51.19,41.0,3.36
522,balkanabat,0,TM,1559606856,23,39.51,54.36,85.4,10.45
523,shimoda,75,JP,1559606856,83,34.7,138.93,75.99,8.05
524,talcahuano,90,CL,1559606857,100,-36.72,-73.12,53.6,2.24
525,cabo san lucas,5,MX,1559606776,60,22.89,-109.91,84.0,19.46
526,phonhong,75,LA,1559606857,94,18.5,102.42,78.8,4.7
527,kruisfontein,20,ZA,1559606857,45,-34.0,24.73,57.86,4.88
528,libreville,20,GA,1559606857,83,0.39,9.45,78.8,9.17
529,poum,45,MK,1559606857,93,41.28,20.71,43.82,0.81
530,skvyra,100,UA,1559606857,89,49.73,29.66,62.18,4.65
